건강생활지원센터명,건강생활지원센터 유형,소재지도로명주소,위도,경도,운영시작시각,운영종료시각,휴무일정보,건강증진사업내용,기타이용안내,의사수,간호사수,영양사수,신체활동전문인력수,물리/작업치료사수,사회복지사수,간호조무사수,기타인력현황,건강검진장비현황,체력측정장비현황,운동장비현황,금연사업장비현황,영양사업장비현황,절주사업장비현황,재활사업장비현황,기타보건교육장비현황,감염병예방장비현황,운영기관전화번호,관리기관명,데이터기준일자,제공기관코드,제공기관명
장전2동건강생활지원센터,동단위형,"부산광역시 금정구 금정로 29-6, 5층",35.22747442,129.0855113,09:00,17:00,토+일+공휴일,금연+절주+신체활동+영양+만성질환예방 및 관리사업+비만,장전2동 마을건강센터 운영,0,1,1,1,0,0,0,,인바디+혈압계,체성분분석기+자동혈압계,쇼울드링크+체스트링크+바우어링크+레그,없음,없음,없음,없음,X,X,051-519-5801,부산광역시 금정구보건소,2022-08-08,B553430,한국건강증진개발원
문현2동건강생활지원센터,동단위형,부산광역시 남구 전포대로92번길 31-7,35.14527179,129.0686869,09:00,18:00,토+일+공휴일,심뇌혈관질환예방관리+신체활동+치매,,0,3,0,0,0,0,0,마을활동가(1),인바디+혈압계+혈당기+당화혈색소측정기,없음,없음,없음,없음,없음,없음,X,X,051-607-6931,부산광역시 남구보건소,2022-08-08,B553430,한국건강증진개발원
금정구건강생활지원센터,기본형,부산광역시 금정구 서동로 175번길 41-5,35.21544759,129.1074472,09:00,18:00,토+일+공휴일,금연+절주+신체활동+영양+만성질환예방 및 관리사업+재활,서3동 마을건강센터 운영,0,2,0,1,1,0,0,,인바디+혈압계,악력측정기+유연성측정기+근지구력측정기,러닝머신+입식바이크+좌식바이크+벨트마,일산화탄소(CO)측정기+금연교육용 폐,식품모형전시대+고혈압당뇨식단 모형전시,없음,재활운동용 트레이드밀+공압식 운동기기,X,X,051-519-5481,부산광역시 금정구보건소,2022-08-08,B553430,한국건강증진개발원
행복동구건강생활지원센터,기본형,부산광역시 동구 안창로 90,35.14449013,129.0396681,09:00,18:00,토+일+공휴일,재활+한의약건강증진+아토피 천식 예방관리+만성질환 예방 및 관리+금연+절주+신체활동+영양,범일1동 마을건강센터 운영,0,5,0,0,1,0,0,마을활동가(1),휴대용혈압계+청진기+당화혈색소측정기+,없음,로잉머신+요가매트+폼롤러+세라밴드2단,일산화탄소(CO)측정기+폐 비교모형 ,소금양 바로알기 패널+설탕양 바로알기,없음,체성분 측정기+펙덱플라이+리버스펙덱플,X,X,051-440-6391,부산광역시 동구보건소,2022-08-08,B553430,한국건강증진개발원
동래구건강생활지원센터,기본형,부산광역시 동래구 명장로32,35.20469662,129.1042478,09:00,17:00,토+일+공휴일,영양+신체활동+심뇌혈관질환예방관리+금연+절주+비만+치매,명장1동 마을건강센터 운영,1,3,1,1,0,0,0,마을활동가(1),인바디+혈압계+콜레스테롤 측정기+혈당,악력측정+배근력측정기,좌식사이클+체스트링크+쇼울더링크+바우,흡연자/비흡연자 폐비교 모형+일년치 ,LED 나트륨 케어 염도계+식단/식품,없음,없음,O,X,051-550-1992,부산광역시 동래구보건소,2022-08-08,B553430,한국건강증진개발원
당감건강생활지원센터,기본형,"부산광역시 부산진구 백양순환로 40, 당감4동주민센터 4층~5층",35.16822222,129.0334223,09:00,17:00,토+일+공휴일,심뇌혈관+신체활동+비만+영양+구강+금연+절주+치매,치매안심센터 당감분소+당감4동 마을건,0,2,1,1,0,0,0,치과위생사(1),자동혈압계+당화혈색소측정기+지질측정기,초음파신장기+배근력측정기+악력측정기+,쇼율더링크+체스트링크+바우어링크+레그,일산화탄소(CO)측정기,음식모형(염분1g식품모형도)+회전형 ,가상음주체험고글,구취측정기+에어필터치과공기압축기+역류,O,O,051-605-6113,부산광역시 부산진구보건소,2022-08-08,B553430,한국건강증진개발원
개금2동건강생활지원센터,동단위형,"부산광역시 부산진구 복지로 93, 개금2동주민센터 2층",35.14490697,129.0195347,09:00,17:00,토+일+공휴일,심뇌혈관+신체활동+비만+치매,개금2동 마을건강센터 운영,0,2,0,1,0,0,0,,자동혈압계+당화혈색소측정기+지질측정기,체성분분석기+자동혈압계,레그컬&레그익스텐션링크+업도미널&백익,없음,없음,없음,없음,X,X,051-605-6693,부산광역시 부산진구보건소,2022-08-08,B553430,한국건강증진개발원
다대건강생활지원센터,기본형,부산광역시 사하구 다대로 530번길 7,35.05916984,128.9713294,09:00,18:00,토+일+공휴일,만성질환 예방 및 관리사업+신체활동+영양+금연절주+정신건강관리,다대1동 마을건강센터 운영,0,2,1,1,0,0,0,마을활동가(1),인바디+혈압계+혈당계+콜레스테롤기계+,체력진단 및 운동가이드 시스템,바우어링크+레그링크+숄더링크+체스트링,일산화탄소(CO)측정기,염도계+비만체험복+근육모형ㆍ지방모형+,음주체험고글,없음,O,O,051-220-5727,부산광역시 사하구보건소,2022-08-08,B553430,한국건강증진개발원
중구건강생활지원센터,기본형,부산광역시 중구 흑교로 48(보수동1가),35.10377395,129.0253563,09:00,18:00,토+일+공휴일,영양+금연+절주+심뇌혈관질환예방관리+운동+재활,보수동 마을건강센터 운영,0,2,2,1,1,0,0,금연상담사(1),인바디+혈압계+콜레스테롤측정기+스트레,체력진단기 및 운동가이드시스템,체성분분석기+자동신장체중계+벨트마사지,일산화탄소(CO)측정기+1년치 타르의,빈혈측정기+영유아용신장체중계+식품모형,음주고글,좌식자전거+쇼울더링크+체스트링크+바우,O,X,051-600-4726,부산광역시 중구보건소,2022-08-08,B553430,한국건강증진개발원
문현1동건강생활지원센터,동단위형,부산광역시 남구 고동골로60번길 1,35.14253417,129.0713224,09:00,17:00,토+일+공휴일,심뇌혈관질환예방관리+신체활동+치매,,0,3,0,0,0,0,0,마을활동가(1),인바디+혈압계+혈당기+당화혈색소측정기,없음,없음,없음,없음,없음,없음,X,X,051-607-6912,부산광역시 남구보건소,2022-08-08,B553430,한국건강증진개발원
화도건강생활지원센터,기본형,경기도 남양주시 화도읍 비룡로 59,37.65784853,127.3007112,09:00,18:00,토+일+공휴일,신체활동+비만+영양+만성질환예방관리,,0,0,0,0,0,0,0,,인바디+혈압계,없음,없음,없음,식품모형,없음,없음,O,X,031-590-8433,경기도 남양주시 남양주보건소,2022-08-08,B553430,한국건강증진개발원
용호3동건강생활지원센터,동단위형,부산광역시 남구 동명로164번길 40,35.11733521,129.1141211,09:00,17:00,토+일+공휴일,심뇌혈관질환예방관리+신체활동+치매,,0,3,0,0,0,0,0,마을활동가(1),인바디+혈압계+혈당기+당화혈색소측정기,없음,없음,없음,없음,없음,없음,X,X,051-607-6771,부산광역시 남구보건소,2022-08-08,B553430,한국건강증진개발원
장림1동건강생활지원센터,동단위형,부산광역시 사하구 장림로161번길2 보림행복센터,35.08305432,128.9668712,09:00,18:00,토+일+공휴일,금연+치매+신체활동+심뇌혈관질환예방관리,,0,3,0,0,0,0,0,마을활동가(1),인바디+혈압계+혈당계+콜레스테롤기계+,없음,없음,없음,없음,없음,없음,X,X,051-262-9485,부산광역시 사하구보건소,2022-08-08,B553430,한국건강증진개발원
개금3동건강생활지원센터,동단위형,부산광역시 부산진구 개금본동로 88,35.15576358,129.0219366,09:00,18:00,토+일+공휴일,심뇌혈관+신체활동+비만+치매,개금3동 마을건강센터 운영,0,3,0,0,0,0,0,,인바디+자동ㆍ수동혈압계+혈당계+콜레스,없음,없음,없음,식단/식품모형,없음,없음,O,X,051-605-6548,부산광역시 부산진구보건소,2022-08-08,B553430,한국건강증진개발원
구암건강생활지원센터,기본형,대구광역시 북구 구암서로 30,35.9386464,128.5660100361,09:00,18:00,토+일+공휴일,건강동아리+신체활동+금연+치매+방문건강관리,건강놀이터,0,8,2,1,0,0,0,치매상담사(3)+청소원(1),인바디+혈압계,엑서핏(악력ㆍ민첩 등),런닝머신+순환식유압운동기,일산화탄소(CO)측정기+흡연자 구강모,염도계+식단/식품모형+영양프로그램,어린이 음주예방모형+음주체험고글,없음,O,X,053-665-4281,대구광역시 북구보건소,2022-08-08,B553430,한국건강증진개발원
서구건강생활지원센터(대구광역시),기본형,대구광역시 서구 서대구로7길 46,35.86074781,128.551416,09:00,17:00,일+공휴일,신체활동+심뇌혈관질환예방관리,,0,4,0,1,0,0,0,,인바디+혈압계,악력측정기,없음,없음,없음,없음,없음,X,X,053-663-3231,대구광역시 서구보건소,2022-08-08,B553430,한국건강증진개발원
고산건강생활지원센터,기본형,대구광역시 수성구 욱수천로 99,35.8369885,128.7128212,09:00,18:00,토+일+공휴일,모바일헬스케어+심뇌혈관질환예방관리+신체활동+구강+금연+방문+모자보건+치매,,1,5,2,2,0,0,0,치위생사(2),인바디+혈압계,악력측정기+자전거 에르고미터,런닝머신+순환식유압운동기,일산화탄소(CO)측정기+흡연자 구강모,식단/식품모형+소변검사스틱,없음,없음,O,X,053-666-3160,대구광역시 수성구보건소,2022-08-08,B553430,한국건강증진개발원
효성건강생활지원센터,기본형,"인천광역시 계양구 봉오대로 543번길 21, 효성평생건강센터 3층",37.53252721,126.7086103,09:00,17:00,일+공휴일,금연+신체활동+심뇌혈관질환예방관리,건강체험관 운영,0,2,1,1,0,0,0,보건직(1),인바디+혈압계,악력측정기+자전거에르고미터,런닝머신,일산화탄소(CO)측정기,염도계+식단/식품모형+영양프로그램,없음,없음,O,X,032-430-7793,인천광역시 계양구보건소,2022-08-08,B553430,한국건강증진개발원
간석건강생활지원센터,기본형,인천광역시 남동구 간석로 41번길 18,37.46745879,126.7130108,09:00,18:00,일+공휴일,만성질환예방관리+장애인재활사업+치매주간보호센터사업+이동건강관리사업+건강생활실천사업,,0,4,0,1,3,0,0,행정인력(5),혈압계+인바디+당뇨측정기,종합기능체력검사+악력측정기+유연성검사,공기압운동기구+런닝머신,없음,없음,없음,트레드밀+FES+등속성상하지운동+매그,X,X,032-453-5960,인천광역시 남동구보건소,2022-08-08,B553430,한국건강증진개발원
열우물건강생활지원센터,기본형,인천광역시 부평구 열우물로 103,37.47580459,126.6961223,09:00,18:00,일+공휴일,금연+신체활동+심뇌혈관질환예방관리,체력단련실 운영,0,3,1,1,0,0,0,,인바디+혈압계,스포런종합측정기,런닝머신+순환식유압운동기+레그프레스+,일산화탄소(CO)측정기+흡연자 구강모,염도계+식단/식품모형+콜레스테롤측정기,없음,없음,O,X,032-459-3164,인천광역시 부평구보건소,2022-08-08,B553430,한국건강증진개발원
가좌건강생활지원센터,기본형,인천광역시 서구 건지로 284번길 60,37.49392982,126.6730351,09:00,18:00,일+공휴일,건강원스톱사업+심뇌혈관예방사업+건강증진프로그램+금연 및 흡연예방+임산부등록 및 관리+구강+혈관노화도+혈압ㆍ혈당ㆍ재활기구 대여사업,,0,2,1,1,0,0,0,,체성분분석기+혈압/혈당/콜레스테롤측정,에어로바이크+각근력측정기+종합기능측정,없음,일산화탄소(CO)측정기+흡연자 구강모,염도계+식단/식품모형,음주체험고글,없음,X,X,032-718-0570,인천광역시 서구보건소,2022-08-08,B553430,한국건강증진개발원
검단건강생활지원센터,기본형,인천광역시 서구 완정로 214,37.60359312,126.6529572,09:00,18:00,일+공휴일,금연+임산부+신체활동+심뇌혈관질환예방관리,건강체험관 운영,0,3,1,1,0,0,0,자활근로(1),인바디+혈압계+콜레스테롤검사기,악력측정기+자전거에르고미터,런닝머신+싸이클,일산화탄소(CO)측정기,식단/식품모형+영양프로그램,없음,없음,X,X,032-718-0580,인천광역시 서구보건소,2022-08-08,B553430,한국건강증진개발원
석남건강생활지원센터,기본형,"인천광역시 서구 길주로 79, 6층",37.50676483,126.670879,09:00,18:00,일+공휴일,건강생활실천사업+심뇌혈관질환예방관리+금연+임산부등록+재활기구대여+불소양치용액배부 및 틀니세척,어린이건강체험관 운영,0,3,0,1,0,0,0,행정인력(2),인바디+혈압계+혈관노화도측정기,악력측정기+자전거에르고미터+윗몸일으키,런닝머신+순환식유압운동기,일산화탄소(CO)측정기+흡연자 구강모,식단/식품모형,음주체험고글,어깨회전운동기,O,O,032-718-0550,인천광역시 서구보건소,2022-08-08,B553430,한국건강증진개발원
완정건강생활지원센터,기본형,"인천광역시 서구 청마로 167번길 19, 2층",37.59210015,126.6746299,09:00,18:00,토+일+공휴일,건강생활실천+심뇌혈관질환예방+신체활동+금연+구강+모자+재활,,0,3,0,1,1,0,0,,인바디+혈압계+당화혈색소+콜레스테롤+,체성분분석기+족압측정기+자세측정기,멀티미디어운동장비+진동운동장비+상하지,일산화탄소(CO)측정기+흡연자 구강모,식단/식품모형+영양프로그램,음주예방모형 판넬,보바스테이블+기립훈련기+FES+전동작,O,X,032-718-0530,인천광역시 서구보건소,2022-08-08,B553430,한국건강증진개발원
송도건강생활지원센터,기본형,인천광역시 연수구 인천타워대로54번길 19,37.37978091,126.6465727,09:00,18:00,토+일+공휴일,만성질환관리+건강생활실천관리+장애인재활관리+모자보건관리,,0,2,1,1,4,0,0,센터장(1)+행정(1)+임상병리사(1,인바디+혈압계,악력측정기+자전거 에르고미터+앉아윗몸,런닝머신+순환식유압운동기+하체근력강화,없음,염도계+영양프로그램,없음,상하지 운동기+전동 상지 운동기+전동,O,O,032-749-6915,인천광역시 연수구보건소,2022-08-08,B553430,한국건강증진개발원
수완건강생활지원센터,기본형,광주광역시 광산구 장덕로 158,35.19707398,126.8257309,09:00,18:00,토+일+공휴일,건강생활실천사업+신체활동+아토피+심뇌혈관질환예방관리+모자보건사업+재활사업 등,어린이건강체험관 운영,0,2,1,1,0,0,0,행정인력(2),인바디+혈압계,악력측정기+각근력측정기+배근력측정기+,없음,흡연자 폐모형,식품모형+영양프로그램,어린이 음주예방모형+음주체험고글,건식수압마사지기+연동상하지운동기,O,O,062-960-8822,광주광역시 광산구보건소,2022-08-08,B553430,한국건강증진개발원
우산건강생활지원센터,기본형,광주광역시 광산구 사암로 167,35.15931267,126.8075588,09:00,18:00,토+일+공휴일,구강+건강생활실천+모바일 헬스케어+대사증후군+재활,구강체험관+재활운동실 운영,0,5,1,1,0,0,0,치과위생사(1),인바디+혈압계+혈당계,악력측정기+자전거에르고미터+윗몸일으키,런닝머신(트레드밀)+좌식 싸이클+레그,없음,비만체험조끼+영양교육 교구,어린이 음주예방모형+음주체험고글,코끼리자전거(연동상하지운동기)+전동꺼,X,X,062-960-3801,광주광역시 광산구보건소,2022-08-08,B553430,한국건강증진개발원
호평건강생활지원센터,기본형,경기도 남양주시 호평로68번길 21,37.65456793,127.2489488,09:00,18:00,토+일+공휴일,신체활동+비만+만성질환예방관리+스트레스관리,,0,0,0,0,0,0,0,,인바디+혈압계,종합체력측정장비,없음,없음,없음,없음,없음,O,X,031-590-8088,경기도 남양주시 남양주보건소,2022-08-08,B553430,한국건강증진개발원
월산건강생활지원센터,기본형,광주광역시 남구 중앙로 12,35.14458489,126.8999216,09:00,18:00,토+일+공휴일,만성질환예방관리+건강생활실천+치매예방관리+영양교육+운동처방실+건강동아리활동지원지역사회 연계협력,건강체험관 운영,0,1,0,1,1,0,0,행정인력(1)+방사선사(1),인바디+혈압계+당화혈색소측정기+스트레,없음,순환식유압운동기,일산화탄소(CO)측정기,염도계+식단/식품모형+영양프로그램,없음,없음,O,X,062-607-6151,광주광역시 남구보건소,2022-08-08,B553430,한국건강증진개발원
주월건강생활지원센터,기본형,광주광역시 남구 군분로 13번길 10,35.13480924,126.8944811,09:00,18:00,토+일+공휴일,신체활동+영양교육+건강의날+운동처방실+건강동아리활동지원+만성질환예방관리+지역사회 연계협력+심뇌혈관질환 예방관리,,0,2,0,1,0,0,0,행정인력(1)+보건인력(1)+청사관리,인바디+혈압계+혈당계+당화혈색소,악력측정기+엑서핏,런닝머신+음파진동기+체스트웨이트+스텝,없음,염도계+당도계+탁상패널(칼로리ㆍ고당),없음,보바스테이블+수동상하지운동기+수력저항,O,X,062-607-3133,광주광역시 남구보건소,2022-08-08,B553430,한국건강증진개발원
지원건강생활지원센터,기본형,"광주광역시 동구 지원로 31-9, 2층(소태동)",35.1253006,126.9351767,09:00,18:00,토+일+공휴일,만성질환예방 및 관리사업+신체활동+영양+비만+재활,건강체험관 운영,0,3,1,0,1,0,0,행정인력(1),인바디+혈압계+콜레스테롤측정기+혈당측,근력측정기,런닝머신+코끼리자전거+종합운동기+레그,없음,염도계+식단/식품모형+염분량입체모형+,어린이 음주예방모형(절주패널)+음주체,근골격재활풀리운동시스템+사다리연습기+,O,X,062-608-3950,광주광역시 동구보건소,2022-08-08,B553430,한국건강증진개발원
두암건강생활지원센터,기본형,광주광역시 북구 군왕로 141번길 6,35.17431405,126.9324676,09:00,18:00,토+일+공휴일,방문건강관리+재활보건,,0,14,0,0,2,0,0,행정인력(1)+운전직(1),인바디+혈압계,없음,없음,없음,없음,없음,없음,X,X,062-410-8984,광주광역시 북구보건소,2022-08-08,B553430,한국건강증진개발원
본촌건강생활지원센터,기본형,광주광역시 북구 양산택지로79번길 26,35.2140802,126.879098,09:00,18:00,토+일+공휴일,만성질환예방관리+신체활동+방문+어린이+임산부,건강체험관 운영,0,4,0,1,1,0,0,,체성분측정기+대사증후군혈액검사기+혈압,엑서핏+악력계,러닝머신+유압운동기+싸이클+에어보드,흡연자/비흡연자 폐비교모형+일산화탄소,비만결과모형+비만체험거울+어린이체중조,음주체험고글+음주측정기+간괴사3D모형,없음,O,O,062-410-6226,광주광역시 북구보건소,2022-08-08,B553430,한국건강증진개발원
서구건강생활지원센터(광주광역시),기본형,광주광역시 서구 운천로 172번길 32,35.14818147,126.8601043,09:00,18:00,토+일+공휴일,심뇌혈관질환예방관리,,0,3,0,0,0,0,0,행정인력(2),혈압계+혈당계+콜레스테롤측정기+당화혈,없음,없음,없음,없음,없음,없음,X,X,062-350-4173,광주광역시 서구보건소,2022-08-08,B553430,한국건강증진개발원
쌍촌건강생활지원센터,기본형,"광주광역시 서구 쌍학로 47, 쌍촌종합사회복지관 2층",35.14738171,126.8688313,09:00,18:00,토+일+공휴일,금연+신체활동+심뇌혈관질환예방관리,,0,4,0,0,0,0,1,,인바디+혈압계+혈당계+콜레스테롤측정계,악력측정기+자전거에르고미터+체력진단시,런닝머신,없음,없음,없음,없음,O,O,062-350-4741,광주광역시 서구보건소,2022-08-08,B553430,한국건강증진개발원
남부건강생활지원센터(대전광역시),기본형,대전광역시 대덕구 동춘당로 187,36.36720767,127.4308386,09:00,18:00,토+일+공휴일,금연+영양+신체활동+심뇌혈관질환예방관리,,1,5,2,5,0,0,0,,체성분 검사기+자동혈압계+체온계+PO,악력측정기+자전거 에르고미터+종합기능,런닝머신+자전거 에르고미터+스텝퍼+스,일산화탄소(CO)측정기+혈압계,근육ㆍ지방 1kg세트+식품교환단위+식,없음,없음,X,X,042-608-4472,대전광역시 대덕구보건소,2022-08-08,B553430,한국건강증진개발원
무거건강생활지원센터,기본형,울산광역시 남구 대학로 147번길 41-26,35.55124507,129.2596407,09:00,18:00,토+일+공휴일,신체활동+영양+금연+심뇌혈관질환예방관리+재활+방문,,0,4,2,2,1,0,0,,체성분측정기+전자혈압계+수동혈압계+혈,종합체력진단기,런닝머신+자전거+순환식 유압운동기+아,일산화탄소(CO)측정기+폐모형+타르모,조리실습장비+염도계+식품모형+탁상용패,없음,마사지기계+수동식 정형용 운동장치+사,X,X,052-226-2340,울산광역시 남구보건소,2022-08-08,B553430,한국건강증진개발원
고운동건강생활지원센터,기본형,세종특별자치시 마음로 64,36.50497406,127.2353641,09:00,18:00,토+일+공휴일,심뇌혈질환관리사업+신체활동+영양 등,어린이건강체험관 운영,0,1,0,1,0,0,1,행정인력(1),인바디+혈압계+혈당계+콜레스테롤 측정,각근력측정기+윗몸일으키기대+유연성측정,싯업대+에어보드+순환식 유압운동기(체,흡연자/비흡연자 폐 모형,당뇨/고혈압 식단 모형+식품별 소금 ,음주체험고글,유인헬스(건강증진 스마트 운동 시스템,O,X,044-301-2900,세종특별자치시 보건소,2022-08-08,B553430,한국건강증진개발원
고양건강생활지원센터,기본형,"경기도 고양시 덕양구 혜음로 19-11, 고양동종합복지회관 3층",37.70251731,126.9011967,09:00,18:00,일+공휴일,신체활동+영양교육+대사증후군예방관리,,0,1,1,1,0,0,0,행정인력(3),인바디+혈압계+콜레스테롤측정기,악력측정기+배근력측정기+에어로바이크 ,런닝머신+좌식및입식자전거,일산화탄소(CO)측정기,식단모형,없음,없음,O,X,02-8075-9668~,경기도 고양시덕양구보건소,2022-08-08,B553430,한국건강증진개발원
100세건강생활지원센터,기본형,경기도 광명시 오리로 1018,37.48091392,126.8504732,09:00,18:00,토+일+공휴일,심뇌혈관질환예방관리+신체활동+금연+임산부+아토피천식,,0,2,1,0,0,0,0,,인바디+혈압계+콜레스테롤측정기+혈당계,악력측정기+배근력측정기,러닝머신+순환식유압운동기,폐활량계,없음,없음,없음,X,X,02-2680-5173~,경기도 광명시보건소,2022-08-08,B553430,한국건강증진개발원
오포건강생활지원센터,기본형,경기도 광주시 오포읍 오포로 884-1,37.36912576,127.2322113,09:00,18:00,토+일+공휴일,모바일헬스케어+아토피천식 예방관리+재활사업+신체활동,건강체험관 운영,1,2,1,1,2,0,0,행정인력(1),인바디+혈압계,악력측정기+자전거에르고미터(기초체력통,수력상지저항운동기+좌식싸이클+전신교차,비흡연자/흡연자  폐모형,식품 모형,음주 체험고글,트레드밀+기립훈련기+코너계단+평행봉+,X,O,031-760-2558,경기도 광주시보건소,2022-08-08,B553430,한국건강증진개발원
다산건강생활지원센터,기본형,"경기도 남양주시 다산중앙로 7, 다산행정복지센터 2층",37.61392759,127.1555489,09:00,18:00,토+일+공휴일,신체활동+비만+영양+만성질환예방관리,,0,1,2,1,0,0,0,행정인력(2),인바디+혈압계,종합체력측정장비,없음,없음,식품모형,없음,없음,O,X,031-590-8583,경기도 남양주시 남양주보건소,2022-08-08,B553430,한국건강증진개발원
별내건강생활지원센터,기본형,경기도 남양주시 별내3로 64-21,37.64616615,127.1218825,09:00,18:00,토+일+공휴일,신체활동+비만+심뇌혈관질환예방관리,,0,1,0,1,0,0,0,행정인력(1),인바디+혈압계,없음,없음,없음,없음,없음,없음,O,X,031-590-8190,경기도 남양주시 남양주풍양보건소,2022-08-08,B553430,한국건강증진개발원
오남건강생활지원센터,기본형,"경기도 남양주시 오남읍 진건오남로 806-34, 오남읍사무소 2층",37.69857479,127.2048424,09:00,18:00,토+일+공휴일,신체활동+비만+심뇌혈관질환예방관리,아동용 건강체험관 운영 예정(예약제),0,1,0,1,0,0,0,행정인력(1),인바디+혈압계,없음,없음,없음,없음,어린이 음주예방모형+음주체험고글,없음,O,X,031-590-8501,경기도 남양주시 남양주풍양보건소,2022-08-08,B553430,한국건강증진개발원
와부건강생활지원센터,기본형,경기도 남양주시 와부읍 월문천로 35,37.58551527,127.2163281,09:00,18:00,토+일+공휴일,신체활동+영양+만성질환예방관리+구강건강관리,,0,0,0,0,0,0,0,,인바디+혈압계,종합체력측정장비,없음,없음,식품모형,없음,없음,O,X,031-590-2751,경기도 남양주시 남양주보건소,2022-08-08,B553430,한국건강증진개발원
배곧건강생활지원센터,동단위형,경기도 시흥시 배곧4로 94-41,37.37170542,126.735733,09:00,18:00,토+일+공휴일,신체활동+만성질환 예방 및 관리사업,,0,2,0,1,0,0,0,,인바디+혈압계,종합기능체력측정기+근력운동기,순환식운동기,없음,없음,없음,없음,X,X,031-428-0005~,경기도 시흥시보건소,2022-08-08,B553430,한국건강증진개발원
중부건강생활지원센터,기본형,경기도 시흥시 목감우회로 23,37.38165404,126.8587492,09:00,18:00,토+일+공휴일,재활보건사업+영양+심뇌혈관질환예방관리+금연+구강+여성과 어린이 건강증진+신체활동+기타,,0,3,3,1,4,0,0,의무기록사(1)+치위생사(1)+위생사,체성분측정기계(인바디770)+혈압계+,없음,순환운동장비(레그프레스+레그익스텐션+,일산화탄소(CO)측정기+흡연자 구강모,염도계+식단/식품모형+뷰박스+당도계+,없음,상지기능 평가도구 1종+전동운동기구 ,O,X,031-310-0702,경기도 시흥시보건소,2022-08-08,B553430,한국건강증진개발원
서부건강생활지원센터(안산시),기본형,경기도 안산시 단원구 신길중앙로 15(신길동),37.33799202,126.7621943,09:00,18:00,토+일+공휴일,대사증후군 검진+금연클리닉+흡연예방교육+비만ㆍ고지혈증 관리+당뇨ㆍ고혈압 관리+영양운동절주 통합상담+나트륨줄이기 염도계 대여,,0,2,1,0,0,0,0,행정인력(1),혈압계+고지혈검사기+혈당검사기+빈혈검,인바디+악력측정기+신장체중계,지능형트레드밀+지능형 레그프레스+지능,일산화탄소(CO)측정기+폐활량측정기,염도계,없음,없음,X,X,031-481-6466,경기도 안산시단원구보건소,2022-08-08,B553430,한국건강증진개발원
반월건강생활지원센터,기본형,경기도 안산시 상록구 건건로 119-4,37.31219292,126.904515,09:00,18:00,일+공휴일,금연+신체활동+심뇌혈관질환예방관리,어린이건강체험관 운영,0,2,1,0,1,0,0,보건직(1),인바디+혈압계,종합체력진단장비,체스트링크+레그링크+숄더링크+콕사링크,일산화탄소(CO)측정기,염도계+식단/식품모형,음주체험고글,하체근력강화기,O,X,031-481-3792,경기도 안산시상록구보건소,2022-08-08,B553430,한국건강증진개발원
공도건강생활지원센터,기본형,경기도 안성시 공도읍 공도로 51-11,36.99971892,127.1661071,09:00,18:00,토+일+공휴일,신체활동+만성질환예방관리,꿈나무건강체험관 운영,0,4,0,1,1,0,0,임상병리사(1)+방사선사(1),인바디+혈압계+혈당계+총콜레스테톨,악력측정기+자전거에르고미터+각근력측정,런닝머신+헬스자전거,흡연자 구강모형,어린이 영양식품 모형,어린이 음주예방모형+음주체험고글,휠체어+워커,X,X,031-678-6801,경기도 안성시보건소,2022-08-08,B553430,한국건강증진개발원
동부건강생활지원센터(양주시),기본형,경기도 양주시 화합로 1426번길 90,37.83814181,127.068036,09:00,18:00,토+일+공휴일,금연+신체활동+심뇌혈관+대사증후군+모바일헬스케어+영양플러스+재활,,0,3,1,1,3,0,0,행정인력(3),인바디+혈압계,자전거＋체력측정및운동가이드시스템,런닝머신+순환식유압운동기,일산화탄소(CO)측정기+흡연자 구강모,염도계+식단/식품모형,없음,순환운동장비+슬링+워킹레일+파라포디움,O,X,031-8082-4365,경기도 양주시보건소,2022-08-08,B553430,한국건강증진개발원
서부건강생활지원센터(양주시),기본형,경기도 양주시 광적면 부흥로 618번길 303,37.81249969,126.9723072,09:00,18:00,토+일+공휴일,금연+신체활동+심뇌혈관+대사증후군+한의약+영양사업,어린이건강체험관 운영,0,2,1,1,0,0,0,상담인력(3),인바디+혈압계,자전거＋체력측정및운동가이드시스템,런닝머신+순환식유압운동기,일산화탄소(CO)측정기+흡연자 구강모,염도계+식단/식품모형+영양프로그램,어린이 음주예방모형+음주체험고글,없음,O,X,031-8082-4375,경기도 양주시보건소,2022-08-08,B553430,한국건강증진개발원
오산시건강생활지원센터,기본형,"경기도 오산시 문헌공로 45, 1층",37.17664285,127.0545674,09:00,18:00,토+일+공휴일,심뇌혈관질환예방관리+한의약건강증진+운동관리,,0,3,1,1,0,0,0,행정인력(1),인바디+혈압계+신장계,없음,런닝머신+트레드밀+사이클+레그프레스+,없음,염도계+식품모형,없음,없음,X,X,031-8036-6580,경기도 오산시보건소,2022-08-08,B553430,한국건강증진개발원
마장건강생활지원센터,기본형,경기도 이천시 마장면 중앙로 81,37.24993986,127.3585048,09:00,18:00,토+일+공휴일,금연+신체활동+심뇌혈관질환예방관리+모자보건+구강+치매,건강체험관 운영,0,0,0,1,0,0,0,,인바디+혈압계+체중계,자전거에르고미터+윗몸일으키기+유연성측,없음,없음,없음,없음,기립훈련기,O,X,031-644-7186~,경기도 이천시보건소,2022-08-08,B553430,한국건강증진개발원
포승건강생활지원센터,기본형,경기도 평택시 포승읍 여술로 47,36.98936154,126.847404,09:00,18:00,토+일+공휴일,금연+신체활동+심뇌혈관질환예방관리+만성질환+영양+비만예방+재활,,0,1,2,0,1,0,0,,인바디+혈압계,없음,순환식 유압 운동기+스텝퍼+수력저항식,일산화탄소(CO)측정기+흡연자 폐 모,염도계+식단/식품모형,없음,전동 작업치료테이블 세트+상하지 운동,X,X,031-8024-8626,경기도 평택시평택보건소,2022-08-08,B553430,한국건강증진개발원
남부건강생활지원센터(강릉시),기본형,강원도 강릉시 강릉대로313번길 6,37.76499482,128.9019205,09:00,18:00,토+일+공휴일,재활사업+만성질환예방및관리사업,동부권노인종합복지관과 동일건물,0,3,1,0,1,0,0,행정인력(2),혈압계,없음,런닝머신,없음,없음,없음,트레드밀+하체근력강화기,O,O,033-660-2488,강원도 강릉시보건소,2022-08-08,B553430,한국건강증진개발원
고성군건강생활지원센터,기본형,강원도 고성군 거진읍 행랑골길 24-1,38.44927612,128.4551781,09:00,18:00,토+일+공휴일,구강보건+방문건강관리+치매관리+심뇌혈관질환관리+신체활동+금연,,0,3,0,1,0,0,0,행정인력(1),인바디+혈압계+혈당계+콜레스테롤측정기,체력복합측정기(근력ㆍ순발력ㆍ민첩성ㆍ평,런닝머신+고정식자전거+상지운동기+하지,일산화탄소(CO)측정기,염도계,없음,없음,X,X,033-680-4129/,강원도 고성군보건소,2022-08-08,B553430,한국건강증진개발원
북삼건강생활지원센터,기본형,강원도 동해시 청운로 96,37.48852873,129.1026735,09:30,17:00,토+일+공휴일,대사증후군+신체활동+비만+금연,체력진단실운영,0,5,2,1,1,0,0,행정인력(2),인바디+혈압계+요화학검사기+콜레스테롤,악력측정기,런닝머신+순환식유압운동기+좌식자전거+,일산화탄소(CO)측정기+폐활량 측정기,염도계+식단/식품모형+영양프로그램,없음,없음,O,O,033-530-2423,강원도 동해시보건소,2022-08-08,B553430,한국건강증진개발원
남원주건강생활지원센터,기본형,강원도 원주시 단관공원길 86,37.31637775,127.9573873,09:00,18:00,일+공휴일,금연+신체활동+영양+건강상담실,건강체험관 운영,0,3,1,1,0,0,0,,인바디+혈압계+혈당계+콜레스테롤측정기,자세측정기+종합체력진단장비,토구+발란자 볼스텝+에어로스텝+에어큐,일산화탄소(CO)측정기+흡연자 구강모,식단/식품모형+영양프로그램+당도계,어린이 음주예방모형+음주체험고글,없음,O,X,033-737-5205,강원도 원주시보건소,2022-08-08,B553430,한국건강증진개발원
서원주건강생활지원센터,기본형,강원도 원주시 지정면 가곡로 75-2,37.37717937,127.8754203,09:00,18:00,토+일+공휴일,만성질환 관리+금연+영양+운동,,0,3,1,1,0,0,0,,인바디+혈압계+당화혈색소측정기+대사증,체력진단장비(에필코치),운동교구-토구 점퍼,일산화탄소(CO)측정기,영양교육용 냉장고+영양교육용 밥솥+영,없음,없음,O,X,033-737-3723,강원도 원주시보건소,2022-08-08,B553430,한국건강증진개발원
서면건강생활지원센터,기본형,강원도 철원군 서면 무금로48번길 15,38.24438377,127.4374319,09:00,18:00,토+일+공휴일,금연+구강+신체활동+심뇌혈관질환예방관리,,0,0,0,0,0,1,1,임상병리사(1)+치과위생사(1),인바디+혈압계+혈당기+콜레스테롤측정기,없음,실내자전거,일산화탄소(CO)측정기+흡연자 구강모,염도계+식단/식품모형,없음,없음,X,X,033-450-5654,강원도 철원군보건소,2022-08-08,B553430,한국건강증진개발원
춘천시건강생활지원센터,기본형,강원도 춘천시 우두하리길 21(우두동),37.90185741,127.741043,09:00,18:00,일+공휴일,신체활동+만성질환예방관리+재활+영양+신체활동+금연+절주,어린이건강체험관 운영,0,2,1,1,2,0,0,행정인력(3),인바디+혈압계,에필코치,런닝머신+ 좌식바이크,없음,없음,음주체험고글(어린이),전자공압식운동기기,O,O,033-250-4489~,강원도 춘천시보건소,2022-08-08,B553430,한국건강증진개발원
평창군건강생활지원센터,기본형,강원도 평창군 진부면 석두산2길 13,37.63726765,128.553517,09:00,21:00,일+공휴일,운동+영양+신체활동+금연+심뇌혈관질환예방관리,방문원격+건강체험관+재활치료실,0,4,0,3,1,2,3,상담사(3)+행정보조인력(1),인바디+혈압계,악력측정기+자전거에르고미터,런닝머신+순환식유압운동기,일산화탄소(CO)측정기+흡연자 구강모,염도계+식단/식품모형+영양프로그램,음주예방모형+음주체험고글,기립훈련기+어깨회전운동기+슬링,O,O,033-336-6128,강원도 평창군보건의료원,2022-08-08,B553430,한국건강증진개발원
북방면건강생활지원센터,기본형,강원도 홍천군 북방면 상화계2길 17,37.70603412,127.854258,09:00,18:00,토+일+공휴일,북방면 건강증진프로그램 운영-만성질환관리사업-신체활동증진사업-영양사업-건강플러스마을사업등,인바디사전예약요망,0,2,1,0,0,0,0,행정인력(2)+청사관리(1),혈압측정기계+당뇨측정기계+당화혈색소 ,악력측정기+자전거 에르고미터,런닝머신상하체근력기구안마의자좌식싸이클,일산화탄소(CO)측정기,염도계+식단/식품모형+영양프로그램,어린이 음주예방모형+음주체험고글,없음,O,O,033-430-4131~,강원도 홍천군보건소,2022-08-08,B553430,한국건강증진개발원
맹동건강생활지원센터,기본형,충청북도 음성군 맹동면 사예2길 35,36.91364052,127.5449461,09:00,18:00,토+일+공휴일,신체활동+만성질환 예방 및 관리사업,건강원스톱 운영,0,1,0,0,0,0,0,치위생사(1)+방사선사(1),인바디+혈압계+간이혈당측정기+빈혈측정,없음,런닝머신+상체근력강화기(7대)+하체근,흡연의 결과모형+폐비교모형+금연교육인,지방근육모형+비만체험조끼+주방기구소독,없음,없음,O,X,043-871-2191,충청북도 음성군보건소,2022-08-08,B553430,한국건강증진개발원
용두동건강생활지원센터,기본형,충청북도 제천시 용두대로17길 8,37.14231622,128.200363,09:00,18:00,토+일+공휴일,신체활동+만성+영양+구강,,0,2,1,1,0,0,1,행정인력(1)+치과위생사(1)+청사관,인바디+혈압계+혈당측정기+당화혈색소검,악력+배근력+종합기능+앉아윗몸앞굽히기,순환식공압운동기(숄드프레스+풀다운+체,일산화탄소(CO)측정기+흡연자 구강모,염도계+당도계+당뇨밥솥+전자저울+식단,어린이 음주예방모형+음주체험고글,없음,X,O,043-641-3282,충청북도 제천시보건소,2022-08-08,B553430,한국건강증진개발원
덕산건강생활지원센터,기본형,충청북도 진천군 덕산읍 연미로 31,36.89973094,127.5282012,09:00,18:00,토+일+공휴일,신체활동+영양+임산부어린이+만성질환예방관리,건강체험관 운영,0,2,0.5,0.5,1,0,1,,신장계+인바디+스트레스측정기+혈압계+,없음,순환식 공압운동기+실내자전거,어린이 흡연예방 모형(폐모형+COPD,영양프로그램실,음주체험고글,없음,X,O,043-539-7422,충청북도 진천군보건소,2022-08-08,B553430,한국건강증진개발원
금산군건강생활지원센터,기본형,충청남도 금산군 금산읍 건삼전3길 14,36.10157802,127.491428,09:00,18:00,토+일+공휴일,신체활동+심뇌혈관질환예방관리+금연+절주+구강,,0,0,0,1,1,0,1,행정인력(2),인바디+혈압계+자율신경측정기+콜레스테,자전거에르고미터 2종+워킹에르고미터+,근력강화 순환운동 유압식 운동기 6종,일산화탄소(CO)측정기+흡연자 구강모,없음,없음,재활 암에르고미터 1종,O,O,041-754-8334,충청남도 금산군보건소,2022-08-08,B553430,한국건강증진개발원
논산시건강생활지원센터,기본형,충청남도 논산시 해월로125번길 26,36.20478349,127.0822883,09:00,18:00,토+일+공휴일,신체활동+영양+구강보건+대사증후군관리,건강체험관 운영,0,2,1,1,0,0,0,치과위생사(1),인바디+자동신장체중계+혈압계+체온계+,악력측정기+에어로바이크측정기+각근력측,순환식유압운동기+하체근력강화용자전거,일산화탄소(CO)측정기+금연조형물,염도계+당도계+식품교환표+식품모형,음주체험고글,없음,X,X,041-746-8027,충청남도 논산시보건소,2022-08-08,B553430,한국건강증진개발원
송악건강생활지원센터,기본형,충청남도 당진시 송악읍 신복운로 99,36.93870119,126.7786187,09:00,18:00,일+공휴일,신체활동+심뇌혈관질환예방관리+영양실습교육,힐링체험관 운영,0,2,1,1,0,0,0,,인바디+혈압계+혈당계,근력측정장비6종,런닝머신+순환운동기기,없음,염도계+식단/식품모형+영양프로그램,없음,없음,O,X,041-360-6080,충청남도 당진시보건소,2022-08-08,B553430,한국건강증진개발원
배방건강생활지원센터,기본형,충청남도 아산시 배방읍 용연동길 50,36.79320709,127.0939081,09:00,18:00,토+일+공휴일,금연+신체활동+심뇌혈관질환예방관리+만선질환관리+아토피천식사업+건강프로그램,어린이건강체험관운영,0,2,0,1,0,0,0,치과위생사(1),인바디+혈압계+혈당계+콜레스테롤검사기,자전거에르고미터+트레드밀,순환식유압운동기,일산화탄소(CO)측정기+흡연자 구강모,염도계+식단/식품모형,어린이음주예방모형+음주체험고글,없음,O,X,041-536-8722,충청남도 아산시보건소,2022-08-08,B553430,한국건강증진개발원
청수건강생활지원센터,기본형,"충청남도 천안시 동남구 청수6로 106-3, 6층",36.78962635,127.1553044,09:00,18:00,토+일+공휴일,금연+한의약+신체활동+심뇌혈관질환예방관리+치매+영양+비만+방문건강관리,천안새마을금고연계,0,3,1,2,0,0,1,,자동신장+체중계(2)+(이동형)체성분,악력측정기+자전거에르고미터,트레드밀(2)+순환식유압운동기(12),일산화탄소(CO)측정기+요중 니코틴 ,염도계,없음,없음,O,O,041-521-5897,충청남도 천안시동남구보건소,2022-08-08,B553430,한국건강증진개발원
성정건강생활지원센터,기본형,충청남도 천안시 서북구 서부8길 29,36.8197755,127.1398835,09:00,18:00,토+일+공휴일,금연+신체활동+심뇌혈관질환예방관리+구강+방문+영양+어린이,건강체험관 운영,0,1,0,1,0,0,0,의료기술(1),인바디+혈압계,악력측정기+자전거에르고미터,런닝머신+순환식유압운동기,일산화탄소(CO)측정기,염도계,어린이 음주예방모형,없음,O,X,041-521-2584,충청남도 천안시서북구보건소,2022-08-08,B553430,한국건강증진개발원
안면읍건강생활지원센터,기본형,충청남도 태안군 안면읍 장터로 149,36.52067135,126.344492,09:00,18:00,일+공휴일,신체활동+치매+금연+심뇌혈관질환예방관리+구강,국가예방접종,1,5,0,0,2,0,0,,인바디+혈압계,체성분 분석기+자동신장체중계(성인용/,레그 익스텐션 머신+숄더 프레스 머신,흡연자 구강 모형+폐 비교 모형+흡연,없음,없음,없음,X,X,041-671-5271,충청남도 태안군보건의료원,2022-08-08,B553430,한국건강증진개발원
서부건강생활지원센터(군산시),기본형,전라북도 군산시 설림5길 83,35.97431549,126.6792743,09:00,18:00,토+일+공휴일,신체활동+영양+비만+치매+방문,,0,3,1,1,0,0,0,행정인력(2),인바디+혈압측정기(자동·수동)+혈당측,악력측정기+종합체력측정기+유연성측정기,런닝머신+좌식싸이클+벨트마사지기+로잉,일산화탄소(CO)측정기+폐비교모형+흡,염도계+당도계+염분량입체모형패널+고혈,알코올중독의증상(액자)+다양한질환의원,없음,X,X,063-454-5172,전라북도 군산시보건소,2022-08-08,B553430,한국건강증진개발원
동부건강생활지원센터(익산시),기본형,전라북도 익산시 금마면 고도길 26-6,35.99379252,127.0501633,09:00,18:00,토+일+공휴일,신체활동+영양+만성및심뇌혈관질환예방관리+치매예방관리+금연+절주,,0,1,1,1,0,0,0,,인바디+혈압계+혈당측정기+총콜레스테롤,악력측정기+자전거에르고미터+유연성검사,순환식유압운동기+런닝머신+사이클+윗몸,직접흡연시연기모형,염도계+식품구성자전거+교환단위모형+소,어린이 음주체험고글,없음,X,X,063-859-7472,전라북도 익산시보건소,2022-08-08,B553430,한국건강증진개발원
익산시건강생활지원센터,기본형,전라북도 익산시 목천로 326,35.92690996,126.9566872,09:00,18:00,토+일+공휴일,통합건강증진사업+만성질환예방관리사업+재활보건사업,,0,4,2,1,3,0,2,행정인력(1),인바디+혈압계,악력측정기+윗몸일으키기측정기+에어로바,런닝머신+사이클+더블트위스트+버터플라,흡연자 폐모형+담배쩔은 치아모형+금연,식단모형+영양교육 교구+소화과정 등신,음주체험고글+음주체험다트,계단훈련기+스트레치용발판ㆍ접이식워커+,O,X,063-859-4908,전라북도 익산시보건소,2022-08-08,B553430,한국건강증진개발원
장계면건강생활지원센터,기본형,전라북도 장수군 장계면 한들로 124,35.73112933,127.5856748,09:00,18:00,토+일+공휴일,심뇌혈관질환 예방관리+영양+신체활동+금연+장계면 보건사업 등,운동실+조리실습실+대사검사실+수유실+,0,1,1,1,0,0,0,행정인력(1)+상담사(1),혈압기+체성분측정기,신장체중자동측정기외1종,런닝머신+렛플다운 외 10종,금연교육모형 3종,염도계 외 9종,없음,없음,O,X,063-352-8700,전라북도 장수군보건의료원,2022-08-08,B553430,한국건강증진개발원
골약건강생활지원센터,기본형,전라남도 광양시 성황3길 19(성황동),34.93757509,127.6777208,09:00,18:00,토+일+공휴일,금연+영양+신체활동+만성질환관리+치매예방+임산부및 어린이건강증진,보건교육실 운영,0,1,1,1,0,0,0,행정인력(2),혈압+혈당+빈혈+고지혈증+당화혈색소+,인바디,러닝머신+입식싸이클,일산화탄소(CO)측정기+폐비교모형+흡,염도계+당도계+식단/식품모형+홀쭉이ㆍ,간비교모형+가상음주체험키트+절주모형,없음,O,O,061-797-4894,전라남도 광양시보건소,2022-08-08,B553430,한국건강증진개발원
광영건강생활지원센터,기본형,전라남도 광양시 금영로 127,34.96197069,127.7194206,09:00,18:00,일+공휴일,금연+영양+신체활동+심뇌혈관질환예방관리+치매,,0,2,1,1,0,0,0,행정인력(1),인바디+혈압계+자동혈압계+당화혈색소측,악력계+윗몸일으키기+종합기능체력측정기,공압식운동기기(6)+트레드밀+좌식사이,일산화탄소(CO)측정기+흡연자 폐모형,염도계+소화기 모형+식품자전거모형+식,간비교 모형+음주체험고글,없음,O,X,061-797-4075,전라남도 광양시보건소,2022-08-08,B553430,한국건강증진개발원
빛가람건강생활지원센터,기본형,전라남도 나주시 빛가람로 721,35.0222063,126.7906417,09:00,18:00,토+일+공휴일,신체활동+심뇌혈관질환예방관리+여성어린이특화+금연+방문건강관리,건강증진실 운영,0,2,0,1,1,0,1,,인바디+혈압계+피하지방측정기,체전굴측정기+근력측정기+악력측정기+윗,런닝머신+하체근력강화 자전거+레그프레,일산화탄소(CO)측정기+흡연자 구강모,염도측정기+영양식단계획요령 지도자료+,가상음주체험세트,없음,X,O,061-339-4751,전라남도 나주시보건소,2022-08-08,B553430,한국건강증진개발원
남악건강생활지원센터,기본형,전라남도 무안군 삼향읍 남악3로 40,34.80941904,126.4610002,09:00,18:00,토+일+공휴일,신체활동+금연+치매+모자보건+만성질환예방관리,활력120세 방 운영,0,4,0,1,0,0,0,청사관리(1),인바디+혈압계,종합체력검사장비(순발력ㆍ민첩성ㆍ평형성,런닝머신+트레드밀+싸이클+스텝퍼+일립,일산화탄소(CO)측정기+흡연실험모형+,식단+식품 모형,음주운전모형+가상음주체험고글,정형용 운동장치+치료용 계단/사다리+,O,X,061-450-5004,전라남도 무안군보건소,2022-08-08,B553430,한국건강증진개발원
신대건강생활지원센터,기본형,전라남도 순천시 해룡면 신대로 142,34.93618947,127.5500873,09:00,18:00,토+일+공휴일,금연+신체활동+건강검진+영양사업,,0,6,0,1,1,0,0,행정인력(3),혈당+콜레스테롤+시력+당화혈색소+신장,악력측정기+자전거에르고미터+배근력측정,런닝머신+싸이클+순환식유압운동기+업도,일산화탄소(CO)측정기,염도계+당도계,없음,없음,O,O,061-749-3640,전라남도 순천시보건소,2022-08-08,B553430,한국건강증진개발원
연향건강생활지원센터,기본형,전라남도 순천시 팔마3길 14-7,34.93468249,127.516378,09:00,18:00,일+공휴일,금연+절주+신체활동+영양+비만+심뇌혈관,건강체험관 운영,0,3,1,1,0,0,0,행정인력(1),인바디+혈압계+혈당계+간기능검사,악력측정기+유연성검사+근지구력검사+배,런닝머신+순환식유압운동기,일산화탄소(CO)측정기+흡연자 구강모,염도계+식단/식품모형+영양프로그램,어린이 음주예방모형+음주체험고글,없음,O,X,061-749-4260,전라남도 순천시보건소,2022-08-08,B553430,한국건강증진개발원
완도군건강생활지원센터,기본형,전라남도 완도군 완도읍 청해진동로70,34.31779883,126.7355876,09:00,18:00,토+일+공휴일,신체활동+비만예방+영양사업+대사증후군발견사업,,0,1,2,1,0,0,1,청사관리인력(1),인바디+전자혈압계+자동신장측정계 등,악력측정기+유연성측정기+심폐지구력측정,런닝머신+스쿼트랙+전동꺼꾸리+토탈힙머,없음,염도계+식단/식품모형,없음,없음,X,X,061-550-6714,전라남도 완도군보건의료원,2022-08-08,B553430,한국건강증진개발원
봉산면건강생활지원센터,기본형,경상북도 김천시 봉산면 예지송정길 9,36.14144378,128.0598364,09:00,18:00,토+일+공휴일,심뇌혈관사업+치매예방사업+신체활동+심폐소생술 체험관+치매분소,건강증진실운영실+기억쉼터운영실+주민참,0,3,1,1,0,0,0,행정보조인력(1)+사회복무요원(2),인바디+혈압계+체중계+헬스 체크,악력측정기+자전거 에르고미터,런닝머신+순환식유압운동기,일산화탄소(CO)측정기+흡연자 폐모형,염도계+식단/식품모형+영양프로그램,어린이 음주예방모형+가상음주체험고글,기립훈련기+어깨회전운동기+슬링,O,X,054-421-2871,경상북도 김천시 보건소,2022-08-08,B553430,한국건강증진개발원
동부건강생활지원센터(김해시),기본형,경상남도 김해시 분성로727번길 8-35(지내동),35.2300251,128.9224445,09:00,18:00,일+공휴일,재활+만성질환관리+금연+절주+영양+신체활동,치매안심센터 동시 운영,0,2,1,1,1,0,0,,인바디+혈압계,악력측정기+자전거에르고미터,없음,일산화탄소(CO)측정기+흡연자 구강모,없음,음주체험고글,트레드밀+모토메드,X,X,055-320-5951,경상남도 김해시보건소,2022-08-08,B553430,한국건강증진개발원
주촌건강생활지원센터,기본형,경상남도 김해시 주촌면 주선로 29-1,35.23477742,128.8457571,09:00,18:00,토+일+공휴일,금연+신체활동+영양+심뇌혈관질환예방관리,,0,2,1,1,1,0,0,행정인력(1)+상담사(1),인바디+혈압계+당화혈색소측정기,악력측정기+앉아서윗몸앞으로굽히기측정기,알렉시아 유압식 순환근력장비+쇼울더링,일산화탄소(CO)측정기+폐모형+흡연구,식단모형+염분량입체모형+식품구성자석보,절주입쳬패널+가상음주체험키트,없음,O,X,055-330-2602,경상남도 김해시보건소,2022-08-08,B553430,한국건강증진개발원
삼천포건강생활지원센터,기본형,"경상남도 사천시 동금로 33, 2층",34.93092199,128.0790908,09:00,18:00,토+일+공휴일,신체활동+만성질환예방관리,건강체험관 운영,0,1,0,1,0,0,0,,인바디+혈압계,악력측정기+자전거,런닝머신+순환식유압운동기,없음,염도계,없음,없음,X,X,055-831-5461,경상남도 사천시보건소,2022-08-08,B553430,한국건강증진개발원
동부건강생활지원센터(양산시),기본형,경상남도 양산시 덕계회야길 68(덕계동),35.37512088,129.149228,09:00,18:00,토+일+공휴일,신체활동+절주+영양+심뇌+치매+비만,,0,3,1,2,1,0,0,임상병리(1),인바디+혈압계+혈당계+콜레스테롤측정기,시각반응측정기+자세보행측정기,없음,없음,없음,없음,없음,O,X,055-392-6981,경상남도 양산시보건소,2022-08-08,B553430,한국건강증진개발원
동부건강생활지원센터(창원시),기본형,경상남도 창원시 진해구 용원로 41번길 8,35.10025913,128.8143601,09:00,18:00,토+일+공휴일,금연+영양+신체활동+심뇌혈관질환예방관리,,0,1,1,1,0,0,0,행정인력(1),인바디+혈압계,없음,런닝머신+순환식유압운동기,일산화탄소(CO)측정기,없음,없음,없음,X,X,055-225-6221,경상남도 창원시진해보건소,2022-08-08,B553430,한국건강증진개발원
함안군건강생활지원센터,기본형,경상남도 함안군 칠원읍 용산1길 54-5,35.31011238,128.5167043,09:00,18:00,일+공휴일,농부증재활+신체활동+심뇌혈관질환예방관리,,0,1,0,1,1,0,0,,인바디+혈압계+혈당콜레스테롤측정기+당,악력측정기+자전거에르고미터,런닝머신+스텝퍼+워킹머신,일산화탄소(CO)측정기+흡연자 구강ㆍ,염도계+식단/식품모형+영양프로그램,없음,기립훈련기+어깨회전운동기+슬링+런닝머,X,X,055-580-3312,경상남도 함안군보건소,2022-08-08,B553430,한국건강증진개발원
노형건강생활지원센터,기본형,제주특별자치도 제주시 노형9길 9-4,33.48288157,126.4769921,09:00,18:00,토+일+공휴일,장애인 지역사회중심재활사업+건강상담실 운영 등,장애인 재활운동실 운영,0,1,0,0,2,0,1,,인바디+혈압계 등,없음,없음,없음,없음,없음,런닝머신+손발자전거등,X,X,064-728-8721,제주 제주시 제주보건소,2022-08-08,B553430,한국건강증진개발원
화북건강생활지원센터,기본형,제주특별자치도 제주시 동화로1길 45-22,33.51836381,126.5783832,09:00,18:00,토+일+공휴일,건강생활실천사업,,0,1,0,1,0,0,0,행정인력(1),인바디+혈압계,자전거에르고미터+악력계+종합체력진단장,트레드밀(2)+입식바이크+좌식바이크+,없음,없음,없음,없음,O,X,064-728-8511,제주 제주시 제주보건소,2022-08-08,B553430,한국건강증진개발원
